[
  {
    "id": "FDA-2026-001",
    "date": "2026-05-18",
    "product": "Epinephrine Auto-Injector",
    "manufacturer": "Mylan Inc.",
    "reason": "Device malfunction reported in multiple units. Class I Recall issued due to potential failure during critical supply delivery.",
    "severity": "critical",
    "affectedHospitals": [
      { "name": "City General", "coordinates": [-80.20, 40.30] },
      { "name": "Memorial Health", "coordinates": [-80.10, 40.20] }
    ]
  },
  {
    "id": "FDA-2026-002",
    "date": "2026-05-20",
    "product": "Lidocaine HCl Injection",
    "manufacturer": "Hospira Inc.",
    "reason": "Batch testing revealed subpotent concentration. Class II Recall for regional distribution affecting GPO contracts.",
    "severity": "high",
    "affectedHospitals": [
      { "name": "Northside Clinic", "coordinates": [-87.90, 42.30] },
      { "name": "County Hospital", "coordinates": [-87.75, 42.20] }
    ]
  },
  {
    "id": "FDA-2026-003",
    "date": "2026-05-22",
    "product": "Ibuprofen 800mg Tablets",
    "manufacturer": "Actavis Pharma",
    "reason": "Labeling mix-up on supplier shipment. Class III Recall. Low severity but requires supplier verification.",
    "severity": "medium",
    "affectedHospitals": [
      { "name": "Eastside Medical", "coordinates": [-74.45, 40.90] },
      { "name": "Valley Care", "coordinates": [-74.35, 40.80] }
    ]
  },
  {
    "id": "FDA-2026-004",
    "date": "2026-05-23",
    "product": "Insulin Glargine",
    "manufacturer": "Novo Nordisk",
    "reason": "Temperature excursion during transport compromised efficacy.",
    "severity": "critical",
    "affectedHospitals": [
      { "name": "Westside Clinic", "coordinates": [-118.25, 34.05] },
      { "name": "Pacific Health", "coordinates": [-118.15, 34.15] }
    ]
  },
  {
    "id": "FDA-2026-005",
    "date": "2026-05-23",
    "product": "Propofol Injectable Emulsion",
    "manufacturer": "Fresenius Kabi",
    "reason": "Particulate matter observed in vials.",
    "severity": "high",
    "affectedHospitals": [
      { "name": "Central Medical", "coordinates": [-90.10, 29.95] },
      { "name": "Delta Care", "coordinates": [-90.00, 29.85] }
    ]
  },
  {
    "id": "FDA-2026-006",
    "date": "2026-05-24",
    "product": "Amoxicillin Oral Suspension",
    "manufacturer": "Teva Pharmaceuticals",
    "reason": "Incorrect dosing cup packaged with medication.",
    "severity": "medium",
    "affectedHospitals": [
      { "name": "Northern Care", "coordinates": [-93.20, 44.90] },
      { "name": "Twin Cities Med", "coordinates": [-93.10, 44.80] }
    ]
  },
  {
    "id": "FDA-2026-007",
    "date": "2026-05-24",
    "product": "Morphine Sulfate Injection",
    "manufacturer": "Pfizer",
    "reason": "Cross-contamination with trace amounts of muscle relaxant.",
    "severity": "critical",
    "affectedHospitals": [
      { "name": "Boston General", "coordinates": [-71.05, 42.36] },
      { "name": "New England Health", "coordinates": [-71.15, 42.46] }
    ]
  },
  {
    "id": "FDA-2026-008",
    "date": "2026-05-25",
    "product": "Heparin Sodium Injection",
    "manufacturer": "Baxter Healthcare",
    "reason": "Potential lack of sterility assurance.",
    "severity": "critical",
    "affectedHospitals": [
      { "name": "Chicago Metro Health", "coordinates": [-87.62, 41.87] },
      { "name": "Lakeside Medical", "coordinates": [-87.52, 41.77] }
    ]
  },
  {
    "id": "FDA-2026-009",
    "date": "2026-05-25",
    "product": "Lorazepam Tablets",
    "manufacturer": "Sandoz",
    "reason": "Failed dissolution specifications at 6-month stability testing.",
    "severity": "low",
    "affectedHospitals": [
      { "name": "Denver Health", "coordinates": [-104.99, 39.73] },
      { "name": "Mountain View Care", "coordinates": [-104.89, 39.83] }
    ]
  },
  {
    "id": "FDA-2026-010",
    "date": "2026-05-25",
    "product": "Ceftriaxone for Injection",
    "manufacturer": "Aurobindo Pharma",
    "reason": "Presence of glass particulate matter.",
    "severity": "high",
    "affectedHospitals": [
      { "name": "Houston Medical Center", "coordinates": [-95.36, 29.76] },
      { "name": "Texas Health", "coordinates": [-95.26, 29.86] }
    ]
  },
  {
    "id": "FDA-2026-011",
    "date": "2026-05-26",
    "product": "Albuterol Inhalation Solution",
    "manufacturer": "Mylan Inc.",
    "reason": "Defective nebulizer interface causing reduced output.",
    "severity": "high",
    "affectedHospitals": [
      { "name": "Seattle General", "coordinates": [-122.33, 47.60] },
      { "name": "Rainier Health", "coordinates": [-122.23, 47.70] }
    ]
  },
  {
    "id": "FDA-2026-012",
    "date": "2026-05-26",
    "product": "Fentanyl Transdermal System",
    "manufacturer": "Janssen Pharmaceuticals",
    "reason": "Adhesive failure leading to potential accidental exposure.",
    "severity": "critical",
    "affectedHospitals": [
      { "name": "Phoenix Medical", "coordinates": [-112.07, 33.44] },
      { "name": "Desert Care", "coordinates": [-111.97, 33.54] }
    ]
  },
  {
    "id": "FDA-2026-013",
    "date": "2026-05-26",
    "product": "Metformin HCl ER Tablets",
    "manufacturer": "Amneal Pharmaceuticals",
    "reason": "Detection of NDMA impurity above acceptable limits.",
    "severity": "medium",
    "affectedHospitals": [
      { "name": "Atlanta Regional", "coordinates": [-84.38, 33.74] },
      { "name": "Georgia Health Center", "coordinates": [-84.28, 33.84] }
    ]
  },
  {
    "id": "FDA-2026-014",
    "date": "2026-05-27",
    "product": "Dexamethasone Sodium Phosphate",
    "manufacturer": "Hikma Pharmaceuticals",
    "reason": "Mislabeled concentration on carton.",
    "severity": "high",
    "affectedHospitals": [
      { "name": "Miami General", "coordinates": [-80.19, 25.76] },
      { "name": "Biscayne Bay Health", "coordinates": [-80.09, 25.86] }
    ]
  },
  {
    "id": "FDA-2026-015",
    "date": "2026-05-27",
    "product": "Pantoprazole Sodium DR",
    "manufacturer": "Dr. Reddy's Laboratories",
    "reason": "Packaging error resulting in mixed tablet types.",
    "severity": "medium",
    "affectedHospitals": [
      { "name": "Detroit Medical", "coordinates": [-83.04, 42.33] },
      { "name": "Motor City Care", "coordinates": [-82.94, 42.43] }
    ]
  },
  {
    "id": "FDA-2026-016",
    "date": "2026-05-27",
    "product": "Warfarin Sodium Tablets",
    "manufacturer": "Taro Pharmaceuticals",
    "reason": "Oversized tablets detected in bulk packaging.",
    "severity": "high",
    "affectedHospitals": [
      { "name": "Philadelphia General", "coordinates": [-75.16, 39.95] },
      { "name": "Liberty Medical Center", "coordinates": [-75.06, 40.05] }
    ]
  },
  {
    "id": "FDA-2026-017",
    "date": "2026-05-28",
    "product": "Ondansetron Injection",
    "manufacturer": "Fresenius Kabi",
    "reason": "Precipitate found in solution prior to expiration.",
    "severity": "high",
    "affectedHospitals": [
      { "name": "Dallas Metro", "coordinates": [-96.79, 32.77] },
      { "name": "Lone Star Health", "coordinates": [-96.69, 32.87] }
    ]
  },
  {
    "id": "FDA-2026-018",
    "date": "2026-05-28",
    "product": "Azithromycin for Oral Suspension",
    "manufacturer": "Lupin Pharmaceuticals",
    "reason": "Incorrect reconstitution instructions on label.",
    "severity": "medium",
    "affectedHospitals": [
      { "name": "San Diego Medical", "coordinates": [-117.16, 32.71] },
      { "name": "Pacific Coast Care", "coordinates": [-117.06, 32.81] }
    ]
  },
  {
    "id": "FDA-2026-019",
    "date": "2026-05-28",
    "product": "Ketamine HCl Injection",
    "manufacturer": "Par Pharmaceutical",
    "reason": "Cracked vials discovered in transit.",
    "severity": "critical",
    "affectedHospitals": [
      { "name": "Baltimore Trauma Center", "coordinates": [-76.61, 39.29] },
      { "name": "Chesapeake Health", "coordinates": [-76.51, 39.39] }
    ]
  },
  {
    "id": "FDA-2026-020",
    "date": "2026-05-29",
    "product": "Naloxone HCl Injection",
    "manufacturer": "Hospira Inc.",
    "reason": "Plunger malfunction in pre-filled syringes.",
    "severity": "critical",
    "affectedHospitals": [
      { "name": "Portland General", "coordinates": [-122.67, 45.52] },
      { "name": "Rose City Medical", "coordinates": [-122.57, 45.62] }
    ]
  },
  {
    "id": "FDA-2026-021",
    "date": "2026-05-29",
    "product": "Lisinopril Tablets",
    "manufacturer": "Zydus Pharmaceuticals",
    "reason": "Foreign substance (metal shards) found during inspection.",
    "severity": "high",
    "affectedHospitals": [
      { "name": "Las Vegas Care", "coordinates": [-115.13, 36.16] },
      { "name": "Desert Oasis Health", "coordinates": [-115.03, 36.26] }
    ]
  },
  {
    "id": "FDA-2026-022",
    "date": "2026-05-29",
    "product": "Simvastatin Tablets",
    "manufacturer": "Accord Healthcare",
    "reason": "Failing impurity specifications at 12 months.",
    "severity": "low",
    "affectedHospitals": [
      { "name": "Charlotte Medical", "coordinates": [-80.84, 35.22] },
      { "name": "Queen City Health", "coordinates": [-80.74, 35.32] }
    ]
  },
  {
    "id": "FDA-2026-023",
    "date": "2026-05-30",
    "product": "Midazolam Injection",
    "manufacturer": "Akorn Inc.",
    "reason": "Microbial contamination detected in reserve samples.",
    "severity": "critical",
    "affectedHospitals": [
      { "name": "Indianapolis Health", "coordinates": [-86.15, 39.76] },
      { "name": "Circle City Medical", "coordinates": [-86.05, 39.86] }
    ]
  },
  {
    "id": "FDA-2026-024",
    "date": "2026-05-30",
    "product": "Levothyroxine Sodium Tablets",
    "manufacturer": "AbbVie",
    "reason": "Subpotency observed leading to potential hypothyroidism.",
    "severity": "medium",
    "affectedHospitals": [
      { "name": "Columbus Regional", "coordinates": [-82.99, 39.96] },
      { "name": "Capital Care", "coordinates": [-82.89, 40.06] }
    ]
  },
  {
    "id": "FDA-2026-025",
    "date": "2026-05-30",
    "product": "Atorvastatin Calcium",
    "manufacturer": "Mylan Inc.",
    "reason": "Out of specification for water content.",
    "severity": "low",
    "affectedHospitals": [
      { "name": "Austin General", "coordinates": [-97.74, 30.26] },
      { "name": "Hill Country Medical", "coordinates": [-97.64, 30.36] }
    ]
  },
  {
    "id": "FDA-2026-026",
    "date": "2026-05-31",
    "product": "Diazepam Injection",
    "manufacturer": "West-Ward Pharmaceuticals",
    "reason": "Crystallization observed in ampules.",
    "severity": "high",
    "affectedHospitals": [
      { "name": "Memphis Med Center", "coordinates": [-90.04, 35.14] },
      { "name": "River City Care", "coordinates": [-89.94, 35.24] }
    ]
  },
  {
    "id": "FDA-2026-027",
    "date": "2026-05-31",
    "product": "Gabapentin Capsules",
    "manufacturer": "Glenmark Pharmaceuticals",
    "reason": "Capsules bursting due to pressure buildup.",
    "severity": "medium",
    "affectedHospitals": [
      { "name": "Louisville Health", "coordinates": [-85.75, 38.25] },
      { "name": "Derby City Medical", "coordinates": [-85.65, 38.35] }
    ]
  },
  {
    "id": "FDA-2026-028",
    "date": "2026-05-31",
    "product": "Omeprazole Delayed-Release",
    "manufacturer": "Apotex Corp.",
    "reason": "Improper seal on bottles leading to moisture exposure.",
    "severity": "low",
    "affectedHospitals": [
      { "name": "Nashville General", "coordinates": [-86.78, 36.16] },
      { "name": "Music City Health", "coordinates": [-86.68, 36.26] }
    ]
  },
  {
    "id": "FDA-2026-029",
    "date": "2026-06-01",
    "product": "Bupivacaine HCl Injection",
    "manufacturer": "Hospira Inc.",
    "reason": "Particulate matter identified as stainless steel fragments.",
    "severity": "critical",
    "affectedHospitals": [
      { "name": "Oklahoma City Med", "coordinates": [-97.51, 35.46] },
      { "name": "Prairie Health", "coordinates": [-97.41, 35.56] }
    ]
  },
  {
    "id": "FDA-2026-030",
    "date": "2026-06-01",
    "product": "Sertraline HCl Tablets",
    "manufacturer": "Cipla USA",
    "reason": "Uncharacteristic odor reported by multiple pharmacies.",
    "severity": "medium",
    "affectedHospitals": [
      { "name": "El Paso General", "coordinates": [-106.48, 31.76] },
      { "name": "Border Care", "coordinates": [-106.38, 31.86] }
    ]
  },
  {
    "id": "FDA-2026-031",
    "date": "2026-06-01",
    "product": "Metoprolol Tartrate",
    "manufacturer": "Novartis",
    "reason": "Dissolution failure resulting in altered pharmacokinetics.",
    "severity": "high",
    "affectedHospitals": [
      { "name": "San Jose Medical Center", "coordinates": [-121.88, 37.33] },
      { "name": "Silicon Valley Health", "coordinates": [-121.78, 37.43] }
    ]
  },
  {
    "id": "FDA-2026-032",
    "date": "2026-06-02",
    "product": "Fluoxetine Capsules",
    "manufacturer": "Teva Pharmaceuticals",
    "reason": "Incorrect lot number printed on primary packaging.",
    "severity": "low",
    "affectedHospitals": [
      { "name": "Kansas City Regional", "coordinates": [-94.57, 39.09] },
      { "name": "Heartland Medical", "coordinates": [-94.47, 39.19] }
    ]
  },
  {
    "id": "FDA-2026-033",
    "date": "2026-06-02",
    "product": "Amiodarone HCl Injection",
    "manufacturer": "Fresenius Kabi",
    "reason": "Leaking IV bags discovered during unpacking.",
    "severity": "high",
    "affectedHospitals": [
      { "name": "Cleveland Medical", "coordinates": [-81.69, 41.49] },
      { "name": "Lakefront Health", "coordinates": [-81.59, 41.59] }
    ]
  },
  {
    "id": "FDA-2026-034",
    "date": "2026-06-02",
    "product": "Prednisone Tablets",
    "manufacturer": "Roxane Laboratories",
    "reason": "Cross-contamination with penicillin derivatives.",
    "severity": "critical",
    "affectedHospitals": [
      { "name": "Omaha General", "coordinates": [-95.93, 41.25] },
      { "name": "Midwest Care", "coordinates": [-95.83, 41.35] }
    ]
  },
  {
    "id": "FDA-2026-035",
    "date": "2026-06-03",
    "product": "Clopidogrel Tablets",
    "manufacturer": "Apotex Corp.",
    "reason": "Superpotent batches detected.",
    "severity": "high",
    "affectedHospitals": [
      { "name": "Raleigh Health Center", "coordinates": [-78.63, 35.77] },
      { "name": "Oak City Medical", "coordinates": [-78.53, 35.87] }
    ]
  },
  {
    "id": "FDA-2026-036",
    "date": "2026-06-03",
    "product": "Ciprofloxacin IV",
    "manufacturer": "Bayer",
    "reason": "Inadequate sterilization of stoppers.",
    "severity": "critical",
    "affectedHospitals": [
      { "name": "Sacramento General", "coordinates": [-121.49, 38.58] },
      { "name": "Capital Health", "coordinates": [-121.39, 38.68] }
    ]
  },
  {
    "id": "FDA-2026-037",
    "date": "2026-06-03",
    "product": "Duloxetine DR Capsules",
    "manufacturer": "Lupin Pharmaceuticals",
    "reason": "Failed dissolution testing at release.",
    "severity": "medium",
    "affectedHospitals": [
      { "name": "Fresno Medical Center", "coordinates": [-119.78, 36.73] },
      { "name": "Valley Health", "coordinates": [-119.68, 36.83] }
    ]
  },
  {
    "id": "FDA-2026-038",
    "date": "2026-06-04",
    "product": "Hydromorphone HCl Injection",
    "manufacturer": "Pfizer",
    "reason": "Label on ampule missing concentration strength.",
    "severity": "critical",
    "affectedHospitals": [
      { "name": "Salt Lake Regional", "coordinates": [-111.89, 40.76] },
      { "name": "Mountain Medical", "coordinates": [-111.79, 40.86] }
    ]
  },
  {
    "id": "FDA-2026-039",
    "date": "2026-06-04",
    "product": "Bupropion HCl ER Tablets",
    "manufacturer": "Sun Pharma",
    "reason": "Tablets breaking in half inside bottles.",
    "severity": "medium",
    "affectedHospitals": [
      { "name": "Tulsa General", "coordinates": [-95.99, 36.15] },
      { "name": "Oil City Health", "coordinates": [-95.89, 36.25] }
    ]
  },
  {
    "id": "FDA-2026-040",
    "date": "2026-06-04",
    "product": "Escitalopram Oxalate",
    "manufacturer": "Mylan Inc.",
    "reason": "Missing patient medication guides in shipments.",
    "severity": "low",
    "affectedHospitals": [
      { "name": "Albuquerque Care", "coordinates": [-106.65, 35.08] },
      { "name": "Desert Medical", "coordinates": [-106.55, 35.18] }
    ]
  }
]